{"time_s":0.000,"mode":"idle","position":{"x":0.000,"y":0.000,"z":0.000},"velocity":{"x":0.000,"y":0.000,"z":0.000},"yaw_rad":0.000,"pitch_rad":0.000,"roll_rad":0.000,"battery_percent":100.000,"target_waypoint_index":0}
{"time_s":0.250,"mode":"takeoff","position":{"x":0.000,"y":0.400,"z":0.000},"velocity":{"x":0.000,"y":3.000,"z":0.000},"yaw_rad":0.000,"pitch_rad":1.570,"roll_rad":0.000,"battery_percent":99.999,"target_waypoint_index":0}
{"time_s":0.500,"mode":"takeoff","position":{"x":0.000,"y":1.550,"z":0.000},"velocity":{"x":0.000,"y":6.000,"z":0.000},"yaw_rad":0.000,"pitch_rad":1.571,"roll_rad":0.000,"battery_percent":99.997,"target_waypoint_index":0}
{"time_s":0.750,"mode":"takeoff","position":{"x":0.000,"y":3.267,"z":0.000},"velocity":{"x":0.000,"y":7.000,"z":0.000},"yaw_rad":0.000,"pitch_rad":1.571,"roll_rad":0.000,"battery_percent":99.994,"target_waypoint_index":0}
{"time_s":1.000,"mode":"takeoff","position":{"x":0.000,"y":5.017,"z":0.000},"velocity":{"x":0.000,"y":7.000,"z":0.000},"yaw_rad":0.000,"pitch_rad":1.571,"roll_rad":0.000,"battery_percent":99.991,"target_waypoint_index":0}
{"time_s":1.250,"mode":"takeoff","position":{"x":0.000,"y":6.767,"z":0.000},"velocity":{"x":0.000,"y":7.000,"z":0.000},"yaw_rad":0.000,"pitch_rad":1.571,"roll_rad":0.000,"battery_percent":99.988,"target_waypoint_index":0}
{"time_s":1.500,"mode":"takeoff","position":{"x":0.000,"y":8.517,"z":0.000},"velocity":{"x":0.000,"y":7.000,"z":0.000},"yaw_rad":0.000,"pitch_rad":1.571,"roll_rad":-0.000,"battery_percent":99.985,"target_waypoint_index":0}
{"time_s":1.750,"mode":"takeoff","position":{"x":0.000,"y":10.267,"z":0.000},"velocity":{"x":0.000,"y":7.000,"z":0.000},"yaw_rad":0.000,"pitch_rad":1.571,"roll_rad":-0.000,"battery_percent":99.982,"target_waypoint_index":0}
{"time_s":2.000,"mode":"flying","position":{"x":0.000,"y":12.000,"z":0.020},"velocity":{"x":0.000,"y":0.000,"z":0.600},"yaw_rad":0.000,"pitch_rad":0.000,"roll_rad":-0.003,"battery_percent":99.980,"target_waypoint_index":1}
{"time_s":2.250,"mode":"flying","position":{"x":0.000,"y":12.000,"z":0.570},"velocity":{"x":0.000,"y":0.000,"z":3.600},"yaw_rad":0.000,"pitch_rad":0.000,"roll_rad":-0.016,"battery_percent":99.979,"target_waypoint_index":1}
{"time_s":2.500,"mode":"flying","position":{"x":0.000,"y":12.000,"z":1.870},"velocity":{"x":0.000,"y":0.000,"z":6.600},"yaw_rad":0.000,"pitch_rad":0.000,"roll_rad":-0.021,"battery_percent":99.977,"target_waypoint_index":1}
{"time_s":2.750,"mode":"flying","position":{"x":0.000,"y":12.000,"z":3.617},"velocity":{"x":0.000,"y":0.000,"z":7.000},"yaw_rad":0.000,"pitch_rad":0.000,"roll_rad":-0.007,"battery_percent":99.974,"target_waypoint_index":1}
{"time_s":3.000,"mode":"flying","position":{"x":0.000,"y":12.000,"z":5.367},"velocity":{"x":0.000,"y":0.000,"z":7.000},"yaw_rad":0.000,"pitch_rad":0.000,"roll_rad":0.010,"battery_percent":99.971,"target_waypoint_index":1}
{"time_s":3.250,"mode":"flying","position":{"x":0.000,"y":12.000,"z":7.117},"velocity":{"x":0.000,"y":0.000,"z":7.000},"yaw_rad":0.000,"pitch_rad":0.000,"roll_rad":0.024,"battery_percent":99.968,"target_waypoint_index":1}
{"time_s":3.500,"mode":"flying","position":{"x":0.000,"y":12.000,"z":8.867},"velocity":{"x":0.000,"y":0.000,"z":7.000},"yaw_rad":0.000,"pitch_rad":0.000,"roll_rad":0.031,"battery_percent":99.965,"target_waypoint_index":1}
{"time_s":3.750,"mode":"flying","position":{"x":0.000,"y":12.000,"z":10.617},"velocity":{"x":0.000,"y":0.000,"z":7.000},"yaw_rad":0.000,"pitch_rad":0.000,"roll_rad":0.029,"battery_percent":99.962,"target_waypoint_index":1}
{"time_s":4.000,"mode":"loiter","position":{"x":0.070,"y":12.000,"z":12.000},"velocity":{"x":1.200,"y":0.000,"z":0.000},"yaw_rad":1.571,"pitch_rad":0.000,"roll_rad":0.003,"battery_percent":99.960,"target_waypoint_index":2}
{"time_s":4.250,"mode":"loiter","position":{"x":0.770,"y":12.000,"z":12.000},"velocity":{"x":4.200,"y":0.000,"z":0.000},"yaw_rad":1.571,"pitch_rad":0.000,"roll_rad":0.001,"battery_percent":99.958,"target_waypoint_index":2}
{"time_s":4.500,"mode":"loiter","position":{"x":2.217,"y":12.000,"z":12.000},"velocity":{"x":7.000,"y":0.000,"z":0.000},"yaw_rad":1.571,"pitch_rad":0.000,"roll_rad":-0.014,"battery_percent":99.956,"target_waypoint_index":2}
{"time_s":4.750,"mode":"loiter","position":{"x":3.967,"y":12.000,"z":12.000},"velocity":{"x":7.000,"y":0.000,"z":0.000},"yaw_rad":1.571,"pitch_rad":0.000,"roll_rad":-0.027,"battery_percent":99.953,"target_waypoint_index":2}
{"time_s":5.000,"mode":"loiter","position":{"x":5.717,"y":12.000,"z":12.000},"velocity":{"x":7.000,"y":0.000,"z":0.000},"yaw_rad":1.571,"pitch_rad":0.000,"roll_rad":-0.031,"battery_percent":99.950,"target_waypoint_index":2}
{"time_s":5.250,"mode":"loiter","position":{"x":7.467,"y":12.000,"z":12.000},"velocity":{"x":7.000,"y":0.000,"z":0.000},"yaw_rad":1.571,"pitch_rad":0.000,"roll_rad":-0.027,"battery_percent":99.947,"target_waypoint_index":2}
{"time_s":5.500,"mode":"loiter","position":{"x":9.217,"y":12.000,"z":12.000},"velocity":{"x":7.000,"y":0.000,"z":0.000},"yaw_rad":1.571,"pitch_rad":0.000,"roll_rad":-0.014,"battery_percent":99.944,"target_waypoint_index":2}
{"time_s":5.750,"mode":"loiter","position":{"x":10.967,"y":12.000,"z":12.000},"velocity":{"x":7.000,"y":0.000,"z":0.000},"yaw_rad":1.571,"pitch_rad":0.000,"roll_rad":0.002,"battery_percent":99.941,"target_waypoint_index":2}
{"time_s":6.000,"mode":"loiter","position":{"x":12.000,"y":12.000,"z":12.000},"velocity":{"x":0.000,"y":0.000,"z":0.000},"yaw_rad":1.571,"pitch_rad":0.000,"roll_rad":0.008,"battery_percent":99.940,"target_waypoint_index":2}
{"time_s":6.250,"mode":"loiter","position":{"x":12.000,"y":12.000,"z":12.000},"velocity":{"x":0.000,"y":0.000,"z":0.000},"yaw_rad":1.571,"pitch_rad":0.000,"roll_rad":0.008,"battery_percent":99.940,"target_waypoint_index":2}
{"time_s":6.500,"mode":"flying","position":{"x":12.000,"y":12.000,"z":11.850},"velocity":{"x":0.000,"y":0.000,"z":-1.800},"yaw_rad":3.142,"pitch_rad":0.000,"roll_rad":0.008,"battery_percent":99.939,"target_waypoint_index":3}
{"time_s":6.750,"mode":"flying","position":{"x":12.000,"y":12.000,"z":11.000},"velocity":{"x":0.000,"y":0.000,"z":-4.800},"yaw_rad":3.142,"pitch_rad":0.000,"roll_rad":0.016,"battery_percent":99.938,"target_waypoint_index":3}
{"time_s":7.000,"mode":"flying","position":{"x":12.000,"y":12.000,"z":9.433},"velocity":{"x":0.000,"y":0.000,"z":-7.000},"yaw_rad":3.142,"pitch_rad":0.000,"roll_rad":0.010,"battery_percent":99.935,"target_waypoint_index":3}
{"time_s":7.250,"mode":"flying","position":{"x":12.000,"y":12.000,"z":7.683},"velocity":{"x":0.000,"y":0.000,"z":-7.000},"yaw_rad":3.142,"pitch_rad":0.000,"roll_rad":-0.007,"battery_percent":99.932,"target_waypoint_index":3}
{"time_s":7.500,"mode":"flying","position":{"x":12.000,"y":12.000,"z":5.933},"velocity":{"x":0.000,"y":0.000,"z":-7.000},"yaw_rad":3.142,"pitch_rad":0.000,"roll_rad":-0.022,"battery_percent":99.929,"target_waypoint_index":3}
{"time_s":7.750,"mode":"flying","position":{"x":12.000,"y":12.000,"z":4.183},"velocity":{"x":0.000,"y":0.000,"z":-7.000},"yaw_rad":3.142,"pitch_rad":0.000,"roll_rad":-0.030,"battery_percent":99.926,"target_waypoint_index":3}
{"time_s":8.000,"mode":"flying","position":{"x":12.000,"y":12.000,"z":2.433},"velocity":{"x":0.000,"y":0.000,"z":-7.000},"yaw_rad":3.142,"pitch_rad":0.000,"roll_rad":-0.030,"battery_percent":99.923,"target_waypoint_index":3}
{"time_s":8.250,"mode":"flying","position":{"x":12.000,"y":12.000,"z":0.683},"velocity":{"x":0.000,"y":0.000,"z":-7.000},"yaw_rad":3.142,"pitch_rad":0.000,"roll_rad":-0.020,"battery_percent":99.920,"target_waypoint_index":3}
{"time_s":8.500,"mode":"loiter","position":{"x":11.740,"y":12.000,"z":0.000},"velocity":{"x":-2.400,"y":0.000,"z":0.000},"yaw_rad":-1.571,"pitch_rad":0.000,"roll_rad":-0.002,"battery_percent":99.919,"target_waypoint_index":4}
{"time_s":8.750,"mode":"loiter","position":{"x":10.740,"y":12.000,"z":0.000},"velocity":{"x":-5.400,"y":0.000,"z":0.000},"yaw_rad":-1.571,"pitch_rad":0.000,"roll_rad":0.009,"battery_percent":99.917,"target_waypoint_index":4}
{"time_s":9.000,"mode":"loiter","position":{"x":9.083,"y":12.000,"z":0.000},"velocity":{"x":-7.000,"y":0.000,"z":0.000},"yaw_rad":-1.571,"pitch_rad":0.000,"roll_rad":0.025,"battery_percent":99.914,"target_waypoint_index":4}
{"time_s":9.250,"mode":"loiter","position":{"x":7.333,"y":12.000,"z":0.000},"velocity":{"x":-7.000,"y":0.000,"z":0.000},"yaw_rad":-1.571,"pitch_rad":0.000,"roll_rad":0.031,"battery_percent":99.911,"target_waypoint_index":4}
{"time_s":9.500,"mode":"loiter","position":{"x":5.583,"y":12.000,"z":0.000},"velocity":{"x":-7.000,"y":0.000,"z":0.000},"yaw_rad":-1.571,"pitch_rad":0.000,"roll_rad":0.028,"battery_percent":99.908,"target_waypoint_index":4}
{"time_s":9.750,"mode":"loiter","position":{"x":3.833,"y":12.000,"z":0.000},"velocity":{"x":-7.000,"y":0.000,"z":0.000},"yaw_rad":-1.571,"pitch_rad":0.000,"roll_rad":0.016,"battery_percent":99.905,"target_waypoint_index":4}
{"time_s":10.000,"mode":"loiter","position":{"x":2.083,"y":12.000,"z":0.000},"velocity":{"x":-7.000,"y":0.000,"z":0.000},"yaw_rad":-1.571,"pitch_rad":0.000,"roll_rad":-0.000,"battery_percent":99.902,"target_waypoint_index":4}
{"time_s":10.250,"mode":"loiter","position":{"x":0.000,"y":12.000,"z":0.000},"velocity":{"x":0.000,"y":0.000,"z":0.000},"yaw_rad":-1.571,"pitch_rad":0.000,"roll_rad":-0.015,"battery_percent":99.899,"target_waypoint_index":4}
{"time_s":10.500,"mode":"loiter","position":{"x":0.000,"y":12.000,"z":0.000},"velocity":{"x":0.000,"y":0.000,"z":0.000},"yaw_rad":-1.571,"pitch_rad":0.000,"roll_rad":-0.015,"battery_percent":99.899,"target_waypoint_index":4}
{"time_s":10.750,"mode":"landing","position":{"x":0.000,"y":12.000,"z":0.000},"velocity":{"x":0.000,"y":0.000,"z":0.000},"yaw_rad":-1.571,"pitch_rad":0.000,"roll_rad":-0.015,"battery_percent":99.899,"target_waypoint_index":5}
{"time_s":11.000,"mode":"landing","position":{"x":0.000,"y":11.600,"z":0.000},"velocity":{"x":0.000,"y":-3.000,"z":0.000},"yaw_rad":-1.571,"pitch_rad":-1.570,"roll_rad":-0.000,"battery_percent":99.898,"target_waypoint_index":5}
{"time_s":11.250,"mode":"landing","position":{"x":0.000,"y":10.450,"z":0.000},"velocity":{"x":0.000,"y":-6.000,"z":0.000},"yaw_rad":-1.571,"pitch_rad":-1.571,"roll_rad":-0.000,"battery_percent":99.896,"target_waypoint_index":5}
{"time_s":11.500,"mode":"landing","position":{"x":0.000,"y":8.733,"z":0.000},"velocity":{"x":0.000,"y":-7.000,"z":0.000},"yaw_rad":-1.571,"pitch_rad":-1.571,"roll_rad":0.000,"battery_percent":99.893,"target_waypoint_index":5}
{"time_s":11.750,"mode":"landing","position":{"x":0.000,"y":6.983,"z":0.000},"velocity":{"x":0.000,"y":-7.000,"z":0.000},"yaw_rad":-1.571,"pitch_rad":-1.571,"roll_rad":0.000,"battery_percent":99.890,"target_waypoint_index":5}
{"time_s":12.000,"mode":"landing","position":{"x":0.000,"y":5.233,"z":0.000},"velocity":{"x":0.000,"y":-7.000,"z":0.000},"yaw_rad":-1.571,"pitch_rad":-1.571,"roll_rad":0.000,"battery_percent":99.887,"target_waypoint_index":5}
{"time_s":12.250,"mode":"landing","position":{"x":0.000,"y":3.483,"z":0.000},"velocity":{"x":0.000,"y":-7.000,"z":0.000},"yaw_rad":-1.571,"pitch_rad":-1.571,"roll_rad":0.000,"battery_percent":99.884,"target_waypoint_index":5}
{"time_s":12.500,"mode":"landing","position":{"x":0.000,"y":1.733,"z":0.000},"velocity":{"x":0.000,"y":-7.000,"z":0.000},"yaw_rad":-1.571,"pitch_rad":-1.571,"roll_rad":0.000,"battery_percent":99.881,"target_waypoint_index":5}
{"time_s":12.700,"mode":"completed","position":{"x":0.000,"y":0.000,"z":0.000},"velocity":{"x":0.000,"y":0.000,"z":0.000},"yaw_rad":-1.571,"pitch_rad":-1.571,"roll_rad":0.000,"battery_percent":99.879,"target_waypoint_index":6}
