{"time_s":0.000,"mode":"idle","position":{"x":0.000,"y":0.000,"z":0.000},"velocity":{"x":0.000,"y":0.000,"z":0.000},"yaw_rad":0.000,"pitch_rad":0.000,"roll_rad":0.000,"battery_percent":100.000,"target_waypoint_index":0}
{"time_s":0.267,"mode":"takeoff","position":{"x":0.000,"y":0.453,"z":0.000},"velocity":{"x":0.000,"y":3.200,"z":0.000},"yaw_rad":0.000,"pitch_rad":1.570,"roll_rad":0.000,"battery_percent":99.999,"target_waypoint_index":0}
{"time_s":0.517,"mode":"takeoff","position":{"x":0.000,"y":1.653,"z":0.000},"velocity":{"x":0.000,"y":6.200,"z":0.000},"yaw_rad":0.000,"pitch_rad":1.571,"roll_rad":0.000,"battery_percent":99.998,"target_waypoint_index":0}
{"time_s":0.750,"mode":"takeoff","position":{"x":0.000,"y":3.450,"z":0.000},"velocity":{"x":0.000,"y":9.000,"z":0.000},"yaw_rad":0.000,"pitch_rad":1.571,"roll_rad":0.000,"battery_percent":99.996,"target_waypoint_index":0}
{"time_s":1.000,"mode":"takeoff","position":{"x":0.000,"y":5.917,"z":0.000},"velocity":{"x":0.000,"y":10.000,"z":0.000},"yaw_rad":0.000,"pitch_rad":1.571,"roll_rad":0.000,"battery_percent":99.993,"target_waypoint_index":0}
{"time_s":1.250,"mode":"takeoff","position":{"x":0.000,"y":8.417,"z":0.000},"velocity":{"x":0.000,"y":10.000,"z":0.000},"yaw_rad":0.000,"pitch_rad":1.571,"roll_rad":0.000,"battery_percent":99.990,"target_waypoint_index":0}
{"time_s":1.517,"mode":"flying","position":{"x":0.120,"y":10.000,"z":0.000},"velocity":{"x":1.600,"y":0.000,"z":0.000},"yaw_rad":1.571,"pitch_rad":0.000,"roll_rad":-0.001,"battery_percent":99.988,"target_waypoint_index":1}
{"time_s":1.767,"mode":"flying","position":{"x":0.920,"y":10.000,"z":0.000},"velocity":{"x":4.600,"y":0.000,"z":0.000},"yaw_rad":1.571,"pitch_rad":0.000,"roll_rad":-0.014,"battery_percent":99.987,"target_waypoint_index":1}
{"time_s":2.017,"mode":"flying","position":{"x":2.470,"y":10.000,"z":0.000},"velocity":{"x":7.600,"y":0.000,"z":0.000},"yaw_rad":1.571,"pitch_rad":0.000,"roll_rad":-0.032,"battery_percent":99.985,"target_waypoint_index":1}
{"time_s":2.267,"mode":"flying","position":{"x":4.750,"y":10.000,"z":0.000},"velocity":{"x":10.000,"y":0.000,"z":0.000},"yaw_rad":1.571,"pitch_rad":0.000,"roll_rad":-0.043,"battery_percent":99.982,"target_waypoint_index":1}
{"time_s":2.517,"mode":"flying","position":{"x":7.250,"y":10.000,"z":0.000},"velocity":{"x":10.000,"y":0.000,"z":0.000},"yaw_rad":1.571,"pitch_rad":0.000,"roll_rad":-0.030,"battery_percent":99.979,"target_waypoint_index":1}
{"time_s":2.767,"mode":"flying","position":{"x":9.750,"y":10.000,"z":0.000},"velocity":{"x":10.000,"y":0.000,"z":0.000},"yaw_rad":1.571,"pitch_rad":0.000,"roll_rad":-0.009,"battery_percent":99.976,"target_waypoint_index":1}
{"time_s":3.017,"mode":"flying","position":{"x":12.250,"y":10.000,"z":0.000},"velocity":{"x":10.000,"y":0.000,"z":0.000},"yaw_rad":1.571,"pitch_rad":0.000,"roll_rad":0.015,"battery_percent":99.973,"target_waypoint_index":1}
{"time_s":3.267,"mode":"flying","position":{"x":14.750,"y":10.000,"z":0.000},"velocity":{"x":10.000,"y":0.000,"z":0.000},"yaw_rad":1.571,"pitch_rad":0.000,"roll_rad":0.035,"battery_percent":99.970,"target_waypoint_index":1}
{"time_s":3.517,"mode":"flying","position":{"x":17.250,"y":10.000,"z":0.000},"velocity":{"x":10.000,"y":0.000,"z":0.000},"yaw_rad":1.571,"pitch_rad":0.000,"roll_rad":0.044,"battery_percent":99.967,"target_waypoint_index":1}
{"time_s":3.767,"mode":"loiter","position":{"x":20.000,"y":10.000,"z":0.000},"velocity":{"x":0.000,"y":0.000,"z":0.000},"yaw_rad":1.571,"pitch_rad":0.000,"roll_rad":0.041,"battery_percent":99.964,"target_waypoint_index":2}
{"time_s":4.017,"mode":"loiter","position":{"x":20.000,"y":10.000,"z":0.400},"velocity":{"x":0.000,"y":0.000,"z":3.000},"yaw_rad":0.000,"pitch_rad":0.000,"roll_rad":0.007,"battery_percent":99.964,"target_waypoint_index":2}
{"time_s":4.267,"mode":"loiter","position":{"x":20.000,"y":10.000,"z":1.550},"velocity":{"x":0.000,"y":0.000,"z":6.000},"yaw_rad":0.000,"pitch_rad":0.000,"roll_rad":0.001,"battery_percent":99.962,"target_waypoint_index":2}
{"time_s":4.517,"mode":"loiter","position":{"x":20.000,"y":10.000,"z":3.450},"velocity":{"x":0.000,"y":0.000,"z":9.000},"yaw_rad":0.000,"pitch_rad":0.000,"roll_rad":-0.019,"battery_percent":99.960,"target_waypoint_index":2}
{"time_s":4.767,"mode":"loiter","position":{"x":20.000,"y":10.000,"z":5.917},"velocity":{"x":0.000,"y":0.000,"z":10.000},"yaw_rad":0.000,"pitch_rad":0.000,"roll_rad":-0.039,"battery_percent":99.957,"target_waypoint_index":2}
{"time_s":5.017,"mode":"loiter","position":{"x":20.000,"y":10.000,"z":8.417},"velocity":{"x":0.000,"y":0.000,"z":10.000},"yaw_rad":0.000,"pitch_rad":0.000,"roll_rad":-0.044,"battery_percent":99.954,"target_waypoint_index":2}
{"time_s":5.267,"mode":"loiter","position":{"x":20.000,"y":10.000,"z":10.917},"velocity":{"x":0.000,"y":0.000,"z":10.000},"yaw_rad":0.000,"pitch_rad":0.000,"roll_rad":-0.037,"battery_percent":99.951,"target_waypoint_index":2}
{"time_s":5.517,"mode":"loiter","position":{"x":20.000,"y":10.000,"z":13.417},"velocity":{"x":0.000,"y":0.000,"z":10.000},"yaw_rad":0.000,"pitch_rad":0.000,"roll_rad":-0.019,"battery_percent":99.948,"target_waypoint_index":2}
{"time_s":5.767,"mode":"loiter","position":{"x":20.000,"y":10.000,"z":15.917},"velocity":{"x":0.000,"y":0.000,"z":10.000},"yaw_rad":0.000,"pitch_rad":0.000,"roll_rad":0.005,"battery_percent":99.945,"target_waypoint_index":2}
{"time_s":6.017,"mode":"loiter","position":{"x":20.000,"y":10.000,"z":18.417},"velocity":{"x":0.000,"y":0.000,"z":10.000},"yaw_rad":0.000,"pitch_rad":0.000,"roll_rad":0.027,"battery_percent":99.942,"target_waypoint_index":2}
{"time_s":6.267,"mode":"loiter","position":{"x":20.000,"y":10.000,"z":20.000},"velocity":{"x":0.000,"y":0.000,"z":0.000},"yaw_rad":0.000,"pitch_rad":0.000,"roll_rad":0.035,"battery_percent":99.940,"target_waypoint_index":2}
{"time_s":6.517,"mode":"loiter","position":{"x":20.000,"y":10.000,"z":20.000},"velocity":{"x":0.000,"y":0.000,"z":0.000},"yaw_rad":0.000,"pitch_rad":0.000,"roll_rad":0.035,"battery_percent":99.940,"target_waypoint_index":2}
{"time_s":6.767,"mode":"loiter","position":{"x":20.000,"y":10.000,"z":20.000},"velocity":{"x":0.000,"y":0.000,"z":0.000},"yaw_rad":0.000,"pitch_rad":0.000,"roll_rad":0.035,"battery_percent":99.940,"target_waypoint_index":2}
{"time_s":7.017,"mode":"loiter","position":{"x":20.000,"y":10.000,"z":20.000},"velocity":{"x":0.000,"y":0.000,"z":0.000},"yaw_rad":0.000,"pitch_rad":0.000,"roll_rad":0.035,"battery_percent":99.940,"target_waypoint_index":2}
{"time_s":7.267,"mode":"landing","position":{"x":19.938,"y":9.969,"z":19.938},"velocity":{"x":-0.933,"y":-0.467,"z":-0.933},"yaw_rad":-2.356,"pitch_rad":-0.340,"roll_rad":-0.002,"battery_percent":99.939,"target_waypoint_index":3}
{"time_s":7.517,"mode":"landing","position":{"x":19.438,"y":9.719,"z":19.438},"velocity":{"x":-2.933,"y":-1.467,"z":-2.933},"yaw_rad":-2.356,"pitch_rad":-0.340,"roll_rad":-0.014,"battery_percent":99.938,"target_waypoint_index":3}
{"time_s":7.767,"mode":"landing","position":{"x":18.438,"y":9.219,"z":18.438},"velocity":{"x":-4.933,"y":-2.467,"z":-4.933},"yaw_rad":-2.356,"pitch_rad":-0.340,"roll_rad":-0.030,"battery_percent":99.936,"target_waypoint_index":3}
{"time_s":8.017,"mode":"landing","position":{"x":16.944,"y":8.472,"z":16.944},"velocity":{"x":-6.667,"y":-3.333,"z":-6.667},"yaw_rad":-2.356,"pitch_rad":-0.340,"roll_rad":-0.039,"battery_percent":99.934,"target_waypoint_index":3}
{"time_s":8.267,"mode":"landing","position":{"x":15.278,"y":7.639,"z":15.278},"velocity":{"x":-6.667,"y":-3.333,"z":-6.667},"yaw_rad":-2.356,"pitch_rad":-0.340,"roll_rad":-0.026,"battery_percent":99.931,"target_waypoint_index":3}
{"time_s":8.500,"mode":"landing","position":{"x":13.722,"y":6.861,"z":13.722},"velocity":{"x":-6.667,"y":-3.333,"z":-6.667},"yaw_rad":-2.356,"pitch_rad":-0.340,"roll_rad":-0.007,"battery_percent":99.928,"target_waypoint_index":3}
{"time_s":8.750,"mode":"landing","position":{"x":12.056,"y":6.028,"z":12.056},"velocity":{"x":-6.667,"y":-3.333,"z":-6.667},"yaw_rad":-2.356,"pitch_rad":-0.340,"roll_rad":0.016,"battery_percent":99.925,"target_waypoint_index":3}
{"time_s":9.000,"mode":"landing","position":{"x":10.389,"y":5.194,"z":10.389},"velocity":{"x":-6.667,"y":-3.333,"z":-6.667},"yaw_rad":-2.356,"pitch_rad":-0.340,"roll_rad":0.034,"battery_percent":99.922,"target_waypoint_index":3}
{"time_s":9.250,"mode":"landing","position":{"x":8.722,"y":4.361,"z":8.722},"velocity":{"x":-6.667,"y":-3.333,"z":-6.667},"yaw_rad":-2.356,"pitch_rad":-0.340,"roll_rad":0.042,"battery_percent":99.919,"target_waypoint_index":3}
{"time_s":9.500,"mode":"landing","position":{"x":7.056,"y":3.528,"z":7.056},"velocity":{"x":-6.667,"y":-3.333,"z":-6.667},"yaw_rad":-2.356,"pitch_rad":-0.340,"roll_rad":0.037,"battery_percent":99.916,"target_waypoint_index":3}
{"time_s":9.750,"mode":"landing","position":{"x":5.389,"y":2.694,"z":5.389},"velocity":{"x":-6.667,"y":-3.333,"z":-6.667},"yaw_rad":-2.356,"pitch_rad":-0.340,"roll_rad":0.022,"battery_percent":99.913,"target_waypoint_index":3}
{"time_s":10.000,"mode":"landing","position":{"x":3.722,"y":1.861,"z":3.722},"velocity":{"x":-6.667,"y":-3.333,"z":-6.667},"yaw_rad":-2.356,"pitch_rad":-0.340,"roll_rad":-0.000,"battery_percent":99.910,"target_waypoint_index":3}
{"time_s":10.250,"mode":"landing","position":{"x":2.056,"y":1.028,"z":2.056},"velocity":{"x":-6.667,"y":-3.333,"z":-6.667},"yaw_rad":-2.356,"pitch_rad":-0.340,"roll_rad":-0.022,"battery_percent":99.907,"target_waypoint_index":3}
{"time_s":10.500,"mode":"landing","position":{"x":0.389,"y":0.194,"z":0.389},"velocity":{"x":-6.667,"y":-3.333,"z":-6.667},"yaw_rad":-2.356,"pitch_rad":-0.340,"roll_rad":-0.037,"battery_percent":99.904,"target_waypoint_index":3}
{"time_s":10.533,"mode":"completed","position":{"x":0.000,"y":0.000,"z":0.000},"velocity":{"x":0.000,"y":0.000,"z":0.000},"yaw_rad":-2.356,"pitch_rad":-0.340,"roll_rad":-0.038,"battery_percent":99.904,"target_waypoint_index":4}
